{
  "type": "FeatureCollection",
  "features": [
    {
      "type": "Feature",
      "id": "b-001",
      "properties": {
        "buildingId": "b-001",
        "siteId": "be",
        "name": "Bundeshaus Ost",
        "objectCode": "1502.AB.0",
        "yearBuilt": "1892",
        "category": "Verwaltungsgebäude",
        "areaGross": 12450
      },
      "geometry": {
        "type": "Point",
        "coordinates": [7.4474, 46.9480]
      }
    },
    {
      "type": "Feature",
      "id": "b-002",
      "properties": {
        "buildingId": "b-002",
        "siteId": "be",
        "name": "Bundeshaus West",
        "objectCode": "1502.AB.1",
        "yearBuilt": "1857",
        "category": "Verwaltungsgebäude",
        "areaGross": 9800
      },
      "geometry": {
        "type": "Point",
        "coordinates": [7.4441, 46.9468]
      }
    },
    {
      "type": "Feature",
      "id": "b-003",
      "properties": {
        "buildingId": "b-003",
        "siteId": "be",
        "name": "Verwaltungsgebäude Hallwyl",
        "objectCode": "1504.BA.0",
        "yearBuilt": "1975",
        "category": "Verwaltungsgebäude",
        "areaGross": 8200
      },
      "geometry": {
        "type": "Point",
        "coordinates": [7.4510, 46.9440]
      }
    },
    {
      "type": "Feature",
      "id": "b-010",
      "properties": {
        "buildingId": "b-010",
        "siteId": "zh",
        "name": "Zollkreisdirektion",
        "objectCode": "2001.ZH.0",
        "yearBuilt": "1960",
        "category": "Verwaltungsgebäude",
        "areaGross": 4600
      },
      "geometry": {
        "type": "Point",
        "coordinates": [8.5280, 47.3440]
      }
    },
    {
      "type": "Feature",
      "id": "b-011",
      "properties": {
        "buildingId": "b-011",
        "siteId": "zh",
        "name": "Bundesasylzentrum",
        "objectCode": "2002.ZH.0",
        "yearBuilt": "2018",
        "category": "Spezialgebäude",
        "areaGross": 6200
      },
      "geometry": {
        "type": "Point",
        "coordinates": [8.5170, 47.3890]
      }
    },
    {
      "type": "Feature",
      "id": "b-020",
      "properties": {
        "buildingId": "b-020",
        "siteId": "bs",
        "name": "Zollverwaltung Nord",
        "objectCode": "3001.BS.0",
        "yearBuilt": "1985",
        "category": "Verwaltungsgebäude",
        "areaGross": 5100
      },
      "geometry": {
        "type": "Point",
        "coordinates": [7.5886, 47.5500]
      }
    },
    {
      "type": "Feature",
      "id": "b-030",
      "properties": {
        "buildingId": "b-030",
        "siteId": "lu",
        "name": "Bundesgebäude Luzern",
        "objectCode": "4001.LU.0",
        "yearBuilt": "1970",
        "category": "Verwaltungsgebäude",
        "areaGross": 3800
      },
      "geometry": {
        "type": "Point",
        "coordinates": [8.3093, 47.0502]
      }
    }
  ]
}
